[{"id": "rec5zxFBoysSIoRd7", "fields": {"Location": "Flatirons Church - Longmont - Longmont, CO", "Address": "1850 Industrial Cir., Longmont, CO 80501", "Google Map URL": "https://www.google.com/maps/place/1850+Industrial+Cir.,+Longmont,+CO+80501", "Name": "Flatirons Church - Longmont", "Status": "Open", "Type": "Drop Off Point", "Street Address": "1850 Industrial Cir.", "City": "Longmont", "State": "CO", "Zip": "80501", "Hours": "24/7", "Primary P.O.C.": "beth_cuilla@flatironschurch.com", "Phone number": "(303) 466-8525", "Dropoff Instructions": "Bin located to the right of the front door"}, "createdTime": "2020-04-04T14:25:50.000Z"}, {"id": "rec6Sz7lzYxSm1ER1", "fields": {"Phone number": "719-374-5953", "Hours": "Need to confirm", "Primary P.O.C.": "Office manager: Charlene", "Internal Comments": "Need to call and\nand confirm ok\nwith this gruop\n", "Status": "Exploring Option", "Name": "Colorado Springs\nAirport", "City": "Colorado Springs", "State": "CO", "Zip": "80916", "Street Address": "1360 Aviation Way", "Location": "Colorado Springs\nAirport - Colorado Springs, CO", "Address": "1360 Aviation Way, Colorado Springs, CO 80916", "Google Map URL": "https://www.google.com/maps/place/1360+Aviation+Way,+Colorado+Springs,+CO+80916"}, "createdTime": "2020-04-03T15:06:58.000Z"}, {"id": "recLZXp4k9FR0Zj8h", "fields": {"Phone number": "720-217-9058", "Hours": "9am - 6pm", "Primary P.O.C.": "Brandon Smith", "Internal Comments": "Brandon is located 5 minute walk from location and can pickup dropoffs easily. \n", "Status": "Open", "Verified": "2020-04-02T16:48:00.000Z", "Type": "Drop Off Point", "Dropoff Instructions": "Drop off at door on the east side of the building, text or call Brandon, and he will wave/pick up package", "Name": "The Littleton Professional Building", "City": "Littleton", "State": "CO", "Zip": "80120", "Street Address": "709 W Littleton Blvd", "Location": "The Littleton Professional Building - Littleton, CO", "Address": "709 W Littleton Blvd, Littleton, CO 80120", "Google Map URL": "https://www.google.com/maps/place/709+W+Littleton+Blvd,+Littleton,+CO+80120"}, "createdTime": "2020-04-03T15:06:58.000Z"}, {"id": "recMbpKBeU2wYU41e", "fields": {"Phone number": "(303) 884-9975", "Hours": "24/7", "Primary P.O.C.": "Matt Brown", "Internal Comments": "Code for Combo Lock: **32-38-16**\n**2nd POC - **Hayden: 847-460-8174\n", "Status": "Open", "Type": "Drop Off Point", "Dropoff Instructions": "Drop on the south side of the building at the green house. Side closest to building has the door. There will be a pad lock and the code will be sent out upon delivery. ", "Name": "Lakewood High School", "City": "Lakewood", "State": "CO", "Zip": "80215", "Street Address": "9700 W 8th Ave", "Location": "Lakewood High School - Lakewood, CO", "Address": "9700 W 8th Ave, Lakewood, CO 80215", "Google Map URL": "https://www.google.com/maps/place/9700+W+8th+Ave,+Lakewood,+CO+80215"}, "createdTime": "2020-04-03T15:06:58.000Z"}, {"id": "recQ6WyBVRlt31zzA", "fields": {"Phone number": "(303) 877-0110", "Hours": "9am - 8pm", "Primary P.O.C.": "Sofia Antal", "Internal Comments": "In future, make4covid box will be placed outside\n", "Status": "Open", "Verified": "2020-04-02T16:45:00.000Z", "Type": "Central Warehouse", "Dropoff Instructions": "Park out front and call Sofia. If the office is closed, place package by the door.", "Name": "Central Warehouse Denver", "City": "Denver", "State": "CO", "Zip": "80216", "Street Address": "4850 Vasquez Blvd", "Location": "Central Warehouse Denver - Denver, CO", "Address": "4850 Vasquez Blvd, Denver, CO 80216", "Google Map URL": "https://www.google.com/maps/place/4850+Vasquez+Blvd,+Denver,+CO+80216"}, "createdTime": "2020-04-03T08:22:18.000Z"}, {"id": "recQDTr5WX6BmDT6o", "fields": {"Location": "Flatirons Church - Denver - Denver, CO", "Address": "2700 S Downing St, Denver, CO 80210", "Google Map URL": "https://www.google.com/maps/place/2700+S+Downing+St,+Denver,+CO+80210", "Name": "Flatirons Church - Denver", "Status": "Open", "Type": "Drop Off Point", "Street Address": "2700 S Downing St", "City": "Denver", "State": "CO", "Zip": "80210", "Hours": "24/7", "Primary P.O.C.": "beth_cuilla@flatironschurch.com", "Dropoff Instructions": "Bin located to the left of the front door", "Phone number": "(303) 466-8525"}, "createdTime": "2020-04-04T14:19:49.000Z"}, {"id": "recQWHJ3OUnpkEaj8", "fields": {"Internal Comments": "\n", "Status": "In Progress", "Type": "Regional Warehouse", "Name": "Regional Warehouse Colorado Springs", "Location": "Regional Warehouse Colorado Springs", "Google Map URL": "https://www.google.com/maps/place/"}, "createdTime": "2020-04-03T15:06:58.000Z"}, {"id": "recQeCuzx3SjvIn2C", "fields": {"Location": "Driver Required. Maker Not able to Drop Off", "Google Map URL": "https://www.google.com/maps/place/", "Name": "Driver Required. Maker Not able to Drop Off", "Status": "Open"}, "createdTime": "2020-04-05T02:09:22.000Z"}, {"id": "recYwcdqpE6EtuOUo", "fields": {"Hours": "24/7", "Internal Comments": "\n", "Status": "Open", "Type": "Drop Off Point", "Name": "ITLL- CU Boulder Campus", "City": "Boulder", "State": "CO", "Zip": "80302", "Street Address": "1045 Regent Dr", "Location": "ITLL- CU Boulder Campus - Boulder, CO", "Address": "1045 Regent Dr, Boulder, CO 80302", "Google Map URL": "https://www.google.com/maps/place/1045+Regent+Dr,+Boulder,+CO+80302"}, "createdTime": "2020-04-03T15:06:58.000Z"}, {"id": "reca1DMr5bHXC4t7F", "fields": {"Phone number": "303-902-8309", "Hours": "24/7", "Primary P.O.C.": "Paul Clinton ", "Internal Comments": "\n", "Status": "Open", "Verified": "2020-04-02T16:56:00.000Z", "Type": "Drop Off Point", "Dropoff Instructions": "Drop boxes at the front door of the innovation campus. Tuck them to the right side by the garage door. Look for Cherry Creek Innovation Campus sign, there is an alcove tucked underneath awning, garage door located next to it. Please drop off to the right of the garage door. Someone will bring inside whenever they can. Will have an essential personnel member there from 8-10  M W F", "Name": "Cherry Creek Innovation Campus", "City": "Centennial", "State": "CO", "Zip": "80112", "Street Address": "8000 S Chambers Rd", "Location": "Cherry Creek Innovation Campus - Centennial, CO", "Address": "8000 S Chambers Rd, Centennial, CO 80112", "Google Map URL": "https://www.google.com/maps/place/8000+S+Chambers+Rd,+Centennial,+CO+80112"}, "createdTime": "2020-04-03T15:06:58.000Z"}, {"id": "recgUbSPJse28mrV7", "fields": {"Internal Comments": "\n", "Status": "In Progress", "Type": "Drop Off Point", "Name": "Littleton", "Location": "Littleton", "Google Map URL": "https://www.google.com/maps/place/"}, "createdTime": "2020-04-03T15:06:58.000Z"}, {"id": "rech5ZvYgG38ozsZJ", "fields": {"Internal Comments": "\n", "Status": "In Progress", "Type": "Regional Warehouse", "Name": "Regional Warehouse Boulder", "Location": "Regional Warehouse Boulder", "Google Map URL": "https://www.google.com/maps/place/"}, "createdTime": "2020-04-03T08:22:18.000Z"}, {"id": "reci0fEmQPdtStPvu", "fields": {"Phone number": "(720) 988-7753", "Hours": "24/7", "Primary P.O.C.": "Chuck Vanderwist", "Internal Comments": "Deliver to front enterance. Call Chuck Vanderwist (720-988-7753) to unlock electronically. Give heads up for major delivery to confirm Chuck is on site\n", "Status": "Open", "Type": "Regional Warehouse", "Name": "Regional Warehouse Montrose", "City": "Montrose", "State": "CO", "Zip": "81401", "Street Address": "21 North Cascade Avenue", "Location": "Regional Warehouse Montrose - Montrose, CO", "Address": "21 North Cascade Avenue, Montrose, CO 81401", "Google Map URL": "https://www.google.com/maps/place/21+North+Cascade+Avenue,+Montrose,+CO+81401"}, "createdTime": "2020-04-03T08:22:18.000Z"}, {"id": "recjUwt83HBaYx7U1", "fields": {"Location": "Flatirons Church - Lafayette - Lafayette, CO", "Address": "355 W South Boulder Rd, Lafayette, CO 80026", "Google Map URL": "https://www.google.com/maps/place/355+W+South+Boulder+Rd,+Lafayette,+CO+80026", "Name": "Flatirons Church - Lafayette", "Status": "Open", "Type": "Drop Off Point", "Street Address": "355 W South Boulder Rd", "City": "Lafayette", "State": "CO", "Zip": "80026", "Hours": "24/7", "Dropoff Instructions": "Bin located to the right of the front door\n", "Primary P.O.C.": "beth_cuilla@flatironschurch.com", "Phone number": "(303) 466-8525"}, "createdTime": "2020-04-04T14:11:48.000Z"}, {"id": "recrawVEDDHHjQCqq", "fields": {"Primary P.O.C.": "Dan Spickard ", "Internal Comments": "works extremely close to Denver drop off point\n", "Status": "In Progress", "Type": "Drop Off Point", "Name": "Loveland", "Location": "Loveland", "Google Map URL": "https://www.google.com/maps/place/"}, "createdTime": "2020-04-03T15:06:58.000Z"}, {"id": "recrmGu302rm06Cjk", "fields": {"Primary P.O.C.": "Mia Sherman", "Internal Comments": "\n", "Status": "In Progress", "Type": "Drop Off Point", "Name": "Broomfield", "Location": "Broomfield", "Google Map URL": "https://www.google.com/maps/place/"}, "createdTime": "2020-04-03T15:06:58.000Z"}]